{
  "countries": [
    {
      "name": "World",
      "code": "world",
      "image": "/images/travels/flags/world.svg"
    },
    {
      "name": "Portugal",
      "code": "pt",
      "image": "/images/travels/flags/pt.svg"
    },
    {
      "name": "United Kingdom",
      "code": "gb",
      "image": "/images/travels/flags/gb.svg"
    },
    {
      "name": "Spain",
      "code": "es",
      "image": "/images/travels/flags/es.svg"
    },
    {
      "name": "Czech Republic",
      "code": "cz",
      "image": "/images/travels/flags/cz.svg"
    },
    {
      "name": "Hungary",
      "code": "hu",
      "image": "/images/travels/flags/hu.svg"
    }
  ],
  "travels": [
    {
      "name": "Budapest",
      "countryCode": "hu",
      "image": "/images/travels/budapest/hungarian-parliament.jpeg",
      "places": [
        {
          "name": "travels.places.budapest.hungarian-parliament.title",
          "images": [
            {
              "url": "/images/travels/budapest/hungarian-parliament.jpeg",
              "landscape": true
            },
            {
              "url": "/images/travels/budapest/hungarian-parliament-2.jpeg",
              "landscape": true
            },
            {
              "url": "/images/travels/budapest/hungarian-parliament-3.jpeg",
              "landscape": false
            },
            {
              "url": "/images/travels/budapest/hungarian-parliament-4.jpeg",
              "landscape": false
            }
          ],
          "coordinates": [
            47.5071,
            19.0457
          ]
        },
        {
          "name": "Ferris Wheel of Budapest",
          "images": [],
          "coordinates": [
            47.49855,
            19.05231
          ]
        },
        {
          "name": "Dohány Street Synagogue",
          "images": [],
          "coordinates": [
            47.4959,
            19.0606
          ]
        },
        {
          "name": "travels.places.budapest.fisherman-bastion.title",
          "images": [
            {
              "url": "/images/travels/budapest/fisherman-bastion.jpeg",
              "landscape": false
            },
            {
              "url": "/images/travels/budapest/fisherman-bastion-2.jpeg",
              "landscape": false
            },
            {
              "url": "/images/travels/budapest/fisherman-bastion-3.jpeg",
              "landscape": false
            }
          ],
          "coordinates": [
            47.5022,
            19.0348
          ]
        },
        {
          "name": "Matthias Church",
          "images": [],
          "coordinates": [
            47.5020,
            19.0342
          ]
        },
        {
          "name": "travels.places.budapest.hungarian-national-museum.title",
          "images": [
            {
              "url": "/images/travels/budapest/hungarian-national-museum.jpeg",
              "landscape": false
            },
            {
              "url": "/images/travels/budapest/hungarian-national-museum-2.jpeg",
              "landscape": false
            }
          ],
          "coordinates": [
            47.4912,
            19.0625
          ]
        },
        {
          "name": "Gellért Hill",
          "images": [],
          "coordinates": [
            47.4864,
            19.0411
          ]
        },
        {
          "name": "St. Stephens Basilica",
          "images": [],
          "coordinates": [
            47.5009,
            19.0540
          ]
        }
      ]
    },
    {
      "name": "London",
      "countryCode": "gb",
      "image": "/images/travels/london/the-shard.jpeg",
      "places": [
        {
          "name": "travels.places.london.british-museum.title",
          "description": "travels.places.london.british-museum.description",
          "images": [
            {
              "url": "/images/travels/london/british-museum.jpeg",
              "landscape": true
            }
          ],
          "coordinates": [
            51.5194,
            -0.1270
          ]
        },
        {
          "name": "travels.places.london.national-gallery.title",
          "description": "travels.places.london.national-gallery.description",
          "images": [
            {
              "url": "/images/travels/london/national-gallery.jpeg",
              "landscape": false
            },
            {
              "url": "/images/travels/london/national-gallery-2.jpeg",
              "landscape": false
            }
          ],
          "coordinates": [
            51.5089,
            -0.1283
          ]
        },
        {
          "name": "travels.places.london.hyde-park.title",
          "description": "travels.places.london.hyde-park.description",
          "images": [
            {
              "url": "/images/travels/london/hyde-park.jpeg",
              "landscape": false
            }
          ],
          "coordinates": [
            51.5073,
            -0.1657
          ]
        },
        {
          "name": "travels.places.london.kew-gardens.title",
          "description": "travels.places.london.kew-gardens.description",
          "images": [
            {
              "url": "/images/travels/london/kew-gardens.jpeg",
              "landscape": true
            }
          ],
          "coordinates": [
            51.4787,
            -0.2956
          ]
        },
        {
          "name": "travels.places.london.harrods.title",
          "description": "travels.places.london.harrods.description",
          "images": [
            {
              "url": "/images/travels/london/harrods.jpeg",
              "landscape": true
            }
          ],
          "coordinates": [
            51.4994,
            -0.1632
          ]
        },
        {
          "name": "travels.places.london.natural-history-museum.title",
          "description": "travels.places.london.natural-history-museum.description",
          "images": [
            {
              "url": "/images/travels/london/natural-history-museum.jpeg",
              "landscape": false
            }
          ],
          "coordinates": [
            51.4967,
            -0.1764
          ]
        },
        {
          "name": "travels.places.london.london-eye.title",
          "description": "travels.places.london.london-eye.description",
          "images": [
            {
              "url": "/images/travels/london/london-eye.jpeg",
              "landscape": true
            }
          ],
          "coordinates": [
            51.5033,
            -0.1196
          ]
        },
        {
          "name": "travels.places.london.saint-pancras-international.title",
          "description": "travels.places.london.saint-pancras-international.description",
          "images": [
            {
              "url": "/images/travels/london/saint-pancras-international.jpeg",
              "landscape": true
            }
          ],
          "coordinates": [
            51.5314,
            -0.1261
          ]
        },
        {
          "name": "travels.places.london.westminster-abbey.title",
          "description": "travels.places.london.westminster-abbey.description",
          "images": [
            {
              "url": "/images/travels/london/westminster-abbey.jpeg",
              "landscape": false
            },
            {
              "url": "/images/travels/london/westminster-abbey-2.jpeg",
              "landscape": false
            }
          ],
          "coordinates": [
            51.4994,
            -0.1273
          ]
        },
        {
          "name": "travels.places.london.hays-galleria.title",
          "description": "travels.places.london.hays-galleria.description",
          "images": [
            {
              "url": "/images/travels/london/hays-galleria.jpeg",
              "landscape": false
            }
          ],
          "coordinates": [
            51.5057,
            -0.0834
          ]
        },
        {
          "name": "travels.places.london.the-shard.title",
          "description": "travels.places.london.the-shard.description",
          "images": [
            {
              "url": "/images/travels/london/the-shard.jpeg",
              "landscape": false
            }
          ],
          "coordinates": [
            51.5045,
            -0.0865
          ]
        },
        {
          "name": "travels.places.london.sky-garden.title",
          "description": "travels.places.london.sky-garden.description",
          "images": [
            {
              "url": "/images/travels/london/sky-garden.jpeg",
              "landscape": false
            },
            {
              "url": "/images/travels/london/sky-garden-2.jpeg",
              "landscape": false
            },
            {
              "url": "/images/travels/london/sky-garden-3.jpeg",
              "landscape": false
            }
          ],
          "coordinates": [
            51.5112,
            -0.0835
          ]
        }
      ]
    },
    {
      "name": "Prague",
      "countryCode": "cz",
      "image": "/images/travels/prague/vysehrad.jpeg",
      "places": [
        {
          "name": "Church of Our Lady before Týn",
          "images": [],
          "coordinates": [
            50.0877361,
            14.4226854
          ]
        },
        {
          "name": "travels.places.prague.national-museum.title",
          "description": "travels.places.prague.national-museum.description",
          "images": [
            {
              "url": "/images/travels/prague/national-museum.jpeg",
              "landscape": false
            },
            {
              "url": "/images/travels/prague/national-museum-2.jpeg",
              "landscape": false
            },
            {
              "url": "/images/travels/prague/national-museum-3.jpeg",
              "landscape": false
            }
          ],
          "coordinates": [
            50.0789482,
            14.4287322
          ]
        },
        {
          "name": "St. Vitus Cathedral",
          "images": [
            {
              "url": "/images/travels/prague/st-vitus-cathedral.jpeg",
              "landscape": false
            },
            {
              "url": "/images/travels/prague/st-vitus-cathedral-2.jpeg",
              "landscape": false
            }
          ],
          "coordinates": [
            50.0908918,
            14.3983227
          ]
        },
        {
          "name": "travels.places.prague.dancing-house.title",
          "images": [
            {
              "url": "/images/travels/prague/dancing-house.jpeg",
              "landscape": false
            }
          ],
          "coordinates": [
            50.0754031,
            14.4141787
          ]
        },
        {
          "name": "travels.places.prague.vysehrad.title",
          "images": [
            {
              "url": "/images/travels/prague/vysehrad.jpeg",
              "landscape": false
            },
            {
              "url": "/images/travels/prague/vysehrad-2.jpeg",
              "landscape": false
            },
            {
              "url": "/images/travels/prague/vysehrad-3.jpeg",
              "landscape": false
            },
            {
              "url": "/images/travels/prague/vysehrad-4.jpeg",
              "landscape": false
            }
          ],
          "coordinates": [
            50.0638429,
            14.4185331
          ]
        },
        {
          "name": "Charles Bridge",
          "images": [],
          "coordinates": [
            50.0864771,
            14.4114366
          ]
        }
      ]
    },
    {
      "name": "Azores",
      "countryCode": "pt",
      "image": "/images/travels/azores/cumeeiras-viewpoint.jpeg",
      "places": [
        {
          "name": "travels.places.azores.cumeeiras-viewpoint.title",
          "description": "travels.places.azores.cumeeiras-viewpoint.description",
          "images": [
            {
              "url": "/images/travels/azores/cumeeiras-viewpoint.jpeg",
              "landscape": true
            }
          ],
          "coordinates": [
            37.8802,
            -25.7767
          ]
        },
        {
          "name": "travels.places.azores.carvao-cave.title",
          "description": "travels.places.azores.carvao-cave.description",
          "images": [
            {
              "url": "/images/travels/azores/carvao-cave.jpeg",
              "landscape": false
            }
          ],
          "coordinates": [
            37.7482,
            -25.6871
          ]
        },
        {
          "name": "travels.places.azores.lake-of-fire.title",
          "description": "travels.places.azores.lake-of-fire.description",
          "images": [
            {
              "url": "/images/travels/azores/lake-of-fire.jpeg",
              "landscape": false
            }
          ],
          "coordinates": [
            37.7631342,
            -25.4753767
          ]
        },
        {
          "name": "travels.places.azores.caldeira-velha.title",
          "description": "travels.places.azores.caldeira-velha.description",
          "images": [
            {
              "url": "/images/travels/azores/caldeira-velha.jpeg",
              "landscape": false
            }
          ],
          "coordinates": [
            37.7821,
            -25.5003
          ]
        },
        {
          "name": "travels.places.azores.congro-lake.title",
          "description": "travels.places.azores.congro-lake.description",
          "images": [
            {
              "url": "/images/travels/azores/congro-lake.jpeg",
              "landscape": true
            }
          ],
          "coordinates": [
            37.7564065,
            -25.4080541
          ]
        },
        {
          "name": "travels.places.azores.ponta-sossego-viewpoint.title",
          "description": "travels.places.azores.ponta-sossego-viewpoint.description",
          "images": [
            {
              "url": "/images/travels/azores/ponta-sossego-viewpoint.jpeg",
              "landscape": false
            }
          ],
          "coordinates": [
            37.7992,
            -25.1459
          ]
        },
        {
          "name": "travels.places.azores.hells-mouth-viewpoint.title",
          "description": "travels.places.azores.hells-mouth-viewpoint.description",
          "images": [
            {
              "url": "/images/travels/azores/hells-mouth-viewpoint.jpeg",
              "landscape": false
            }
          ],
          "coordinates": [
            37.8429639,
            -25.7655288
          ]
        },
        {
          "name": "travels.places.azores.monte-palace-hotel.title",
          "description": "travels.places.azores.monte-palace-hotel.description",
          "images": [
            {
              "url": "/images/travels/azores/monte-palace-hotel.jpeg",
              "landscape": true
            }
          ],
          "coordinates": [
            37.8389261,
            -25.7963058
          ]
        },
        {
          "name": "travels.places.azores.lagoon-seven-cities.title",
          "description": "travels.places.azores.lagoon-seven-cities.description",
          "images": [
            {
              "url": "/images/travels/azores/lagoon-seven-cities.jpeg",
              "landscape": true
            }
          ],
          "coordinates": [
            37.8550078,
            -25.7907664
          ]
        },
        {
          "name": "travels.places.azores.salto-cavalo-viewpoint.title",
          "description": "travels.places.azores.salto-cavalo-viewpoint.description",
          "images": [
            {
              "url": "/images/travels/azores/salto-cavalo-viewpoint.jpeg",
              "landscape": false
            }
          ],
          "coordinates": [
            37.787394,
            -25.2858992
          ]
        },
        {
          "name": "travels.places.azores.grena-park.title",
          "description": "travels.places.azores.grena-park.description",
          "images": [
            {
              "url": "/images/travels/azores/grena-park.jpeg",
              "landscape": true
            }
          ],
          "coordinates": [
            37.7663435,
            -25.3377637
          ]
        },
        {
          "name": "travels.places.azores.furnas-lake.title",
          "description": "travels.places.azores.furnas-lake.description",
          "images": [
            {
              "url": "/images/travels/azores/furnas-lake.jpeg",
              "landscape": false
            }
          ],
          "coordinates": [
            37.7595184,
            -25.3375279
          ]
        },
        {
          "name": "travels.places.azores.terra-nostra-garden.title",
          "description": "travels.places.azores.terra-nostra-garden.description",
          "images": [
            {
              "url": "/images/travels/azores/terra-nostra-garden.jpeg",
              "landscape": true
            },
            {
              "url": "/images/travels/azores/terra-nostra-garden-2.jpeg",
              "landscape": false
            },
            {
              "url": "/images/travels/azores/terra-nostra-garden-3.jpeg",
              "landscape": true
            }
          ],
          "coordinates": [
            37.771687,
            -25.3172526
          ]
        }
      ]
    },
    {
      "name": "Madeira",
      "countryCode": "pt",
      "image": "/images/travels/madeira/sao-lourenco-point.jpeg",
      "places": [
        {
          "name": "travels.places.madeira.balcoes-viewpoint.title",
          "description": "travels.places.madeira.balcoes-viewpoint.description",
          "images": [
            {
              "url": "/images/travels/madeira/balcoes-viewpoint.jpeg",
              "landscape": true
            }
          ],
          "coordinates": [
            32.7414302,
            -16.8925299
          ]
        },
        {
          "name": "travels.places.madeira.cape-girao.title",
          "description": "travels.places.madeira.cape-girao.description",
          "images": [
            {
              "url": "/images/travels/madeira/cape-girao.jpeg",
              "landscape": true
            }
          ],
          "coordinates": [
            32.6565925,
            -17.0067413
          ]
        },
        {
          "name": "travels.places.madeira.queimadas-forest-park.title",
          "description": "travels.places.madeira.queimadas-forest-park.description",
          "images": [
            {
              "url": "/images/travels/madeira/queimadas-forest-park.jpeg",
              "landscape": true
            }
          ],
          "coordinates": [
            32.7836128,
            -16.9080988
          ]
        },
        {
          "name": "travels.places.madeira.sao-lourenco-point.title",
          "description": "travels.places.madeira.sao-lourenco-point.description",
          "images": [
            {
              "url": "/images/travels/madeira/sao-lourenco-point.jpeg",
              "landscape": true
            },
            {
              "url": "/images/travels/madeira/sao-lourenco-point-2.jpeg",
              "landscape": true
            }
          ],
          "coordinates": [
            32.7430294,
            -16.7030567
          ]
        },
        {
          "name": "travels.places.madeira.monte-palace.title",
          "description": "travels.places.madeira.monte-palace.description",
          "images": [
            {
              "url": "/images/travels/madeira/monte-palace.jpeg",
              "landscape": true
            }
          ],
          "coordinates": [
            32.6750137,
            -16.902579
          ]
        }
      ]
    },
    {
      "name": "Barcelona",
      "countryCode": "es",
      "image": "/images/travels/barcelona/tibidabo.jpeg",
      "places": [
        {
          "name": "travels.places.barcelona.tibidabo.title",
          "description": "travels.places.barcelona.tibidabo.description",
          "images": [
            {
              "url": "/images/travels/barcelona/tibidabo.jpeg",
              "landscape": true
            }
          ],
          "coordinates": [
            41.4232901,
            2.1178993
          ]
        },
        {
          "name": "travels.places.barcelona.spain-square.title",
          "description": "travels.places.barcelona.spain-square.description",
          "images": [
            {
              "url": "/images/travels/barcelona/spain-square.jpeg",
              "landscape": false
            }
          ],
          "coordinates": [
            41.3750218,
            2.1469346
          ]
        },
        {
          "name": "travels.places.barcelona.montserrat.title",
          "description": "travels.places.barcelona.montserrat.description",
          "images": [
            {
              "url": "/images/travels/barcelona/montserrat.jpeg",
              "landscape": false
            },
            {
              "url": "/images/travels/barcelona/montserrat-2.jpeg",
              "landscape": false
            },
            {
              "url": "/images/travels/barcelona/montserrat-3.jpeg",
              "landscape": true
            }
          ],
          "coordinates": [
            41.5957839,
            1.8254368
          ]
        },
        {
          "name": "travels.places.barcelona.park-guell.title",
          "description": "travels.places.barcelona.park-guell.description",
          "images": [
            {
              "url": "/images/travels/barcelona/park-guell.jpeg",
              "landscape": false
            },
            {
              "url": "/images/travels/barcelona/park-guell-2.jpeg",
              "landscape": false
            }
          ],
          "coordinates": [
            41.4144988,
            2.1505058
          ]
        },
        {
          "name": "travels.places.barcelona.arc-de-triomf.title",
          "description": "travels.places.barcelona.arc-de-triomf.description",
          "images": [
            {
              "url": "/images/travels/barcelona/arc-de-triomf.jpeg",
              "landscape": true
            }
          ],
          "coordinates": [
            41.391037,
            2.1784728
          ]
        },
        {
          "name": "travels.places.barcelona.sagrada-familia.title",
          "description": "travels.places.barcelona.sagrada-familia.description",
          "images": [
            {
              "url": "/images/travels/barcelona/sagrada-familia.jpeg",
              "landscape": true
            },
            {
              "url": "/images/travels/barcelona/sagrada-familia-2.jpeg",
              "landscape": false
            }
          ],
          "coordinates": [
            41.4036339,
            2.1721671
          ]
        },
        {
          "name": "travels.places.barcelona.cathedral-la-ribera.title",
          "description": "travels.places.barcelona.cathedral-la-ribera.description",
          "images": [
            {
              "url": "/images/travels/barcelona/cathedral-la-ribera.jpeg",
              "landscape": false
            }
          ],
          "coordinates": [
            41.3838911,
            2.1798824
          ]
        },
        {
          "name": "travels.places.barcelona.barcelona-cathedral.title",
          "description": "travels.places.barcelona.barcelona-cathedral.description",
          "images": [
            {
              "url": "/images/travels/barcelona/barcelona-cathedral.jpeg",
              "landscape": true
            },
            {
              "url": "/images/travels/barcelona/barcelona-cathedral-2.jpeg",
              "landscape": false
            },
            {
              "url": "/images/travels/barcelona/barcelona-cathedral-3.jpeg",
              "landscape": false
            }
          ],
          "coordinates": [
            41.383966,
            2.1740104
          ]
        },
        {
          "name": "travels.places.barcelona.casa-mila.description",
          "description": "travels.places.barcelona.casa-mila.description",
          "images": [
            {
              "url": "/images/travels/barcelona/casa-mila.jpeg",
              "landscape": false
            }
          ],
          "coordinates": [
            41.3952195,
            2.1597137
          ]
        },
        {
          "name": "travels.places.barcelona.casa-batllo.description",
          "description": "travels.places.barcelona.casa-batllo.description",
          "images": [
            {
              "url": "/images/travels/barcelona/casa-batllo.jpeg",
              "landscape": false
            }
          ],
          "coordinates": [
            41.3916088,
            2.1625536
          ]
        }
      ]
    }
  ]
}