{
  "countries": [
    {
      "name": "World",
      "code": "world",
      "image": "/images/travels/flags/world.svg"
    },
    {
      "name": "Portugal",
      "code": "pt",
      "image": "/images/travels/flags/pt.svg"
    },
    {
      "name": "United Kingdom",
      "code": "gb",
      "image": "/images/travels/flags/gb.svg"
    },
    {
      "name": "Spain",
      "code": "es",
      "image": "/images/travels/flags/es.svg"
    },
    {
      "name": "Czech Republic",
      "code": "cz",
      "image": "/images/travels/flags/cz.svg"
    },
    {
      "name": "Hungary",
      "code": "hu",
      "image": "/images/travels/flags/hu.svg"
    }
  ],
  "travels": [
    {
      "name": "Budapest",
      "countryCode": "hu",
      "image": "/images/travels/budapest/hungarian-parliament.jpeg",
      "places": [
        {
          "name": "Hungarian Parliament Building",
          "images": [
            {
              "url": "/images/travels/budapest/hungarian-parliament.jpeg",
              "landscape": true
            },
            {
              "url": "/images/travels/budapest/hungarian-parliament-2.jpeg",
              "landscape": true
            },
            {
              "url": "/images/travels/budapest/hungarian-parliament-3.jpeg",
              "landscape": false
            },
            {
              "url": "/images/travels/budapest/hungarian-parliament-4.jpeg",
              "landscape": false
            }
          ],
          "coordinates": [
            47.5071,
            19.0457
          ]
        },
        {
          "name": "Ferris Wheel of Budapest",
          "images": [],
          "coordinates": [
            47.49855,
            19.05231
          ]
        },
        {
          "name": "Dohány Street Synagogue",
          "images": [],
          "coordinates": [
            47.4959,
            19.0606
          ]
        },
        {
          "name": "Fisherman's Bastion",
          "images": [
            {
              "url": "/images/travels/budapest/fisherman-bastion.jpeg",
              "landscape": false
            },
            {
              "url": "/images/travels/budapest/fisherman-bastion-2.jpeg",
              "landscape": false
            },
            {
              "url": "/images/travels/budapest/fisherman-bastion-3.jpeg",
              "landscape": false
            }
          ],
          "coordinates": [
            47.5022,
            19.0348
          ]
        },
        {
          "name": "Matthias Church",
          "images": [],
          "coordinates": [
            47.5020,
            19.0342
          ]
        },
        {
          "name": "Hungarian National Museum",
          "images": [
            {
              "url": "/images/travels/budapest/hungarian-national-museum.jpeg",
              "landscape": false
            },
            {
              "url": "/images/travels/budapest/hungarian-national-museum-2.jpeg",
              "landscape": false
            }
          ],
          "coordinates": [
            47.4912,
            19.0625
          ]
        },
        {
          "name": "Gellért Hill",
          "images": [],
          "coordinates": [
            47.4864,
            19.0411
          ]
        },
        {
          "name": "St. Stephens Basilica",
          "images": [],
          "coordinates": [
            47.5009,
            19.0540
          ]
        }
      ]
    },
    {
      "name": "London",
      "countryCode": "gb",
      "image": "/images/travels/london/the-shard.jpeg",
      "places": [
        {
          "name": "British Museum",
          "images": [
            {
              "url": "/images/travels/london/british-museum.jpeg",
              "landscape": true
            }
          ],
          "description": "travels.places.london.british-museum",
          "coordinates": [
            51.5194,
            -0.1270
          ]
        },
        {
          "name": "National Gallery",
          "images": [
            {
              "url": "/images/travels/london/national-gallery.jpeg",
              "landscape": false
            },
            {
              "url": "/images/travels/london/national-gallery-2.jpeg",
              "landscape": false
            }
          ],
          "description": "travels.places.london.national-gallery",
          "coordinates": [
            51.5089,
            -0.1283
          ]
        },
        {
          "name": "Hyde Park",
          "images": [
            {
              "url": "/images/travels/london/hyde-park.jpeg",
              "landscape": false
            }
          ],
          "description": "travels.places.london.hyde-park",
          "coordinates": [
            51.5073,
            -0.1657
          ]
        },
        {
          "name": "Kew Gardens",
          "images": [
            {
              "url": "/images/travels/london/kew-gardens.jpeg",
              "landscape": true
            }
          ],
          "description": "travels.places.london.kew-gardens",
          "coordinates": [
            51.4787,
            -0.2956
          ]
        },
        {
          "name": "Harrods",
          "images": [
            {
              "url": "/images/travels/london/harrods.jpeg",
              "landscape": true
            }
          ],
          "description": "travels.places.london.harrods",
          "coordinates": [
            51.4994,
            -0.1632
          ]
        },
        {
          "name": "Natural History Museum",
          "images": [
            {
              "url": "/images/travels/london/natural-history-museum.jpeg",
              "landscape": false
            }
          ],
          "description": "travels.places.london.natural-history-museum",
          "coordinates": [
            51.4967,
            -0.1764
          ]
        },
        {
          "name": "London Eye",
          "images": [
            {
              "url": "/images/travels/london/london-eye.jpeg",
              "landscape": true
            }
          ],
          "description": "travels.places.london.london-eye",
          "coordinates": [
            51.5033,
            -0.1196
          ]
        },
        {
          "name": "St. Pancras International",
          "images": [
            {
              "url": "/images/travels/london/saint-pancras-international.jpeg",
              "landscape": true
            }
          ],
          "description": "travels.places.london.saint-pancras-international",
          "coordinates": [
            51.5314,
            -0.1261
          ]
        },
        {
          "name": "Westminster Abbey",
          "images": [
            {
              "url": "/images/travels/london/westminster-abbey.jpeg",
              "landscape": false
            },
            {
              "url": "/images/travels/london/westminster-abbey-2.jpeg",
              "landscape": false
            }
          ],
          "description": "travels.places.london.westminster-abbey",
          "coordinates": [
            51.4994,
            -0.1273
          ]
        },
        {
          "name": "Hay's Galleria",
          "images": [
            {
              "url": "/images/travels/london/hays-galleria.jpeg",
              "landscape": false
            }
          ],
          "description": "travels.places.london.hays-galleria",
          "coordinates": [
            51.5057,
            -0.0834
          ]
        },
        {
          "name": "The Shard",
          "images": [
            {
              "url": "/images/travels/london/the-shard.jpeg",
              "landscape": false
            }
          ],
          "description": "travels.places.london.the-shard",
          "coordinates": [
            51.5045,
            -0.0865
          ]
        },
        {
          "name": "Sky Garden",
          "images": [
            {
              "url": "/images/travels/london/sky-garden.jpeg",
              "landscape": false
            },
            {
              "url": "/images/travels/london/sky-garden-2.jpeg",
              "landscape": false
            },
            {
              "url": "/images/travels/london/sky-garden-3.jpeg",
              "landscape": false
            }
          ],
          "description": "travels.places.london.sky-garden",
          "coordinates": [
            51.5112,
            -0.0835
          ]
        }
      ]
    },
    {
      "name": "Prague",
      "countryCode": "cz",
      "image": "/images/travels/prague/vysehrad.jpeg",
      "places": [
        {
          "name": "Church of Our Lady before Týn",
          "images": [],
          "coordinates": [
            50.0877361,
            14.4226854
          ]
        },
        {
          "name": "National Museum",
          "description": "travels.places.prague.national-museum",
          "images": [
            {
              "url": "/images/travels/prague/national-museum.jpeg",
              "landscape": false
            },
            {
              "url": "/images/travels/prague/national-museum-2.jpeg",
              "landscape": false
            },
            {
              "url": "/images/travels/prague/national-museum-3.jpeg",
              "landscape": false
            }
          ],
          "coordinates": [
            50.0789482,
            14.4287322
          ]
        },
        {
          "name": "St. Vitus Cathedral",
          "images": [],
          "coordinates": [
            50.0908918,
            14.3983227
          ]
        },
        {
          "name": "Dancing House",
          "images": [
            {
              "url": "/images/travels/prague/dancing-house.jpeg",
              "landscape": false
            }
          ],
          "coordinates": [
            50.0754031,
            14.4141787
          ]
        },
        {
          "name": "Vyšehrad",
          "images": [
            {
              "url": "/images/travels/prague/vysehrad.jpeg",
              "landscape": false
            },
            {
              "url": "/images/travels/prague/vysehrad-2.jpeg",
              "landscape": false
            },
            {
              "url": "/images/travels/prague/vysehrad-3.jpeg",
              "landscape": false
            },
            {
              "url": "/images/travels/prague/vysehrad-4.jpeg",
              "landscape": false
            }
          ],
          "coordinates": [
            50.0638429,
            14.4185331
          ]
        },
        {
          "name": "Charles Bridge",
          "images": [],
          "coordinates": [
            50.0864771,
            14.4114366
          ]
        }
      ]
    },
    {
      "name": "Azores",
      "countryCode": "pt",
      "image": "/images/travels/azores/miradouro-cumeeiras.jpeg",
      "places": [
        {
          "name": "Miradouro das Cumeeiras",
          "description": "travels.places.azores.miradouro-cumeeiras",
          "images": [
            {
              "url": "/images/travels/azores/miradouro-cumeeiras.jpeg",
              "landscape": true
            }
          ],
          "coordinates": [
            37.8802,
            -25.7767
          ]
        },
        {
          "name": "Gruta do Carvão",
          "description": "travels.places.azores.gruta-carvao",
          "images": [
            {
              "url": "/images/travels/azores/gruta-carvao.jpeg",
              "landscape": false
            }
          ],
          "coordinates": [
            37.7482,
            -25.6871
          ]
        },
        {
          "name": "Lagoa do Fogo",
          "description": "travels.places.azores.lagoa-fogo",
          "images": [
            {
              "url": "/images/travels/azores/lagoa-fogo.jpeg",
              "landscape": false
            }
          ],
          "coordinates": [
            37.7631342,
            -25.4753767
          ]
        },
        {
          "name": "Caldeira Velha",
          "description": "travels.places.azores.caldeira-velha",
          "images": [
            {
              "url": "/images/travels/azores/caldeira-velha.jpeg",
              "landscape": false
            }
          ],
          "coordinates": [
            37.7821,
            -25.5003
          ]
        },
        {
          "name": "Lagoa do Congro",
          "description": "travels.places.azores.lagoa-congro",
          "images": [
            {
              "url": "/images/travels/azores/lagoa-congro.jpeg",
              "landscape": true
            }
          ],
          "coordinates": [
            37.7564065,
            -25.4080541
          ]
        },
        {
          "name": "Miradouro da Ponta do Sossego",
          "description": "travels.places.azores.miradouro-ponta-sossego",
          "images": [
            {
              "url": "/images/travels/azores/miradouro-ponta-sossego.jpeg",
              "landscape": false
            }
          ],
          "coordinates": [
            37.7992,
            -25.1459
          ]
        },
        {
          "name": "Miradouro da Boca do Inferno",
          "description": "travels.places.azores.miradouro-boca-inferno",
          "images": [
            {
              "url": "/images/travels/azores/miradouro-boca-inferno.jpeg",
              "landscape": false
            }
          ],
          "coordinates": [
            37.8429639,
            -25.7655288
          ]
        },
        {
          "name": "Hotel Monte Palace",
          "description": "travels.places.azores.hotel-monte-palace",
          "images": [
            {
              "url": "/images/travels/azores/hotel-monte-palace.jpeg",
              "landscape": true
            }
          ],
          "coordinates": [
            37.8389261,
            -25.7963058
          ]
        },
        {
          "name": "Lagoa das Sete Cidades",
          "description": "travels.places.azores.lagoa-sete-cidades",
          "images": [
            {
              "url": "/images/travels/azores/lagoa-sete-cidades.jpeg",
              "landscape": true
            }
          ],
          "coordinates": [
            37.8550078,
            -25.7907664
          ]
        },
        {
          "name": "Miradouro do Salto do Cavalo",
          "description": "travels.places.azores.miradouro-salto-cavalo",
          "images": [
            {
              "url": "/images/travels/azores/miradouro-salto-cavalo.jpeg",
              "landscape": false
            }
          ],
          "coordinates": [
            37.787394,
            -25.2858992
          ]
        },
        {
          "name": "Casa Grená",
          "description": "travels.places.azores.casa-grena",
          "images": [
            {
              "url": "/images/travels/azores/casa-grena.jpeg",
              "landscape": true
            }
          ],
          "coordinates": [
            37.7663435,
            -25.3377637
          ]
        },
        {
          "name": "Lagoa das Furnas",
          "description": "travels.places.azores.lagoa-furnas",
          "images": [
            {
              "url": "/images/travels/azores/lagoa-furnas.jpeg",
              "landscape": false
            }
          ],
          "coordinates": [
            37.7595184,
            -25.3375279
          ]
        },
        {
          "name": "Parque Terra Nostra",
          "description": "travels.places.azores.parque-terra-nostra",
          "images": [
            {
              "url": "/images/travels/azores/parque-terra-nostra.jpeg",
              "landscape": true
            },
            {
              "url": "/images/travels/azores/parque-terra-nostra-2.jpeg",
              "landscape": false
            },
            {
              "url": "/images/travels/azores/parque-terra-nostra-3.jpeg",
              "landscape": true
            }
          ],
          "coordinates": [
            37.771687,
            -25.3172526
          ]
        }
      ]
    },
    {
      "name": "Madeira",
      "countryCode": "pt",
      "image": "/images/travels/madeira/ponta-sao-lourenco.jpeg",
      "places": [
        {
          "name": "Miradouro dos Balcões",
          "description": "travels.places.madeira.miradouro-balcoes",
          "images": [
            {
              "url": "/images/travels/madeira/miradouro-balcoes.jpeg",
              "landscape": true
            }
          ],
          "coordinates": [
            32.7414302,
            -16.8925299
          ]
        },
        {
          "name": "Cabo Girão",
          "description": "travels.places.madeira.cabo-girao",
          "images": [
            {
              "url": "/images/travels/madeira/cabo-girao.jpeg",
              "landscape": true
            }
          ],
          "coordinates": [
            32.6565925,
            -17.0067413
          ]
        },
        {
          "name": "Parque das Queimadas",
          "description": "travels.places.madeira.parque-queimadas",
          "images": [
            {
              "url": "/images/travels/madeira/parque-queimadas.jpeg",
              "landscape": true
            }
          ],
          "coordinates": [
            32.7836128,
            -16.9080988
          ]
        },
        {
          "name": "Ponta de São Lourenço",
          "description": "travels.places.madeira.ponta-sao-lourenco",
          "images": [
            {
              "url": "/images/travels/madeira/ponta-sao-lourenco.jpeg",
              "landscape": true
            },
            {
              "url": "/images/travels/madeira/ponta-sao-lourenco-2.jpeg",
              "landscape": true
            }
          ],
          "coordinates": [
            32.7430294,
            -16.7030567
          ]
        },
        {
          "name": "Monte Palace",
          "description": "travels.places.madeira.monte-palace",
          "images": [
            {
              "url": "/images/travels/madeira/monte-palace.jpeg",
              "landscape": true
            }
          ],
          "coordinates": [
            32.6750137,
            -16.902579
          ]
        }
      ]
    },
    {
      "name": "Barcelona",
      "countryCode": "es",
      "image": "/images/travels/barcelona/tibidabo.jpeg",
      "places": [
        {
          "name": "Tibidabo",
          "description": "travels.places.barcelona.tibidabo",
          "images": [
            {
              "url": "/images/travels/barcelona/tibidabo.jpeg",
              "landscape": true
            }
          ],
          "coordinates": [
            41.4232901,
            2.1178993
          ]
        },
        {
          "name": "Plaza d'Espanya",
          "description": "travels.places.barcelona.plaza-espanya",
          "images": [
            {
              "url": "/images/travels/barcelona/plaza-espanya.jpeg",
              "landscape": false
            }
          ],
          "coordinates": [
            41.3750218,
            2.1469346
          ]
        },
        {
          "name": "Montserrat",
          "description": "travels.places.barcelona.montserrat",
          "images": [
            {
              "url": "/images/travels/barcelona/montserrat.jpeg",
              "landscape": false
            },
            {
              "url": "/images/travels/barcelona/montserrat-2.jpeg",
              "landscape": false
            },
            {
              "url": "/images/travels/barcelona/montserrat-3.jpeg",
              "landscape": true
            }
          ],
          "coordinates": [
            41.5957839,
            1.8254368
          ]
        },
        {
          "name": "Park Güell",
          "description": "travels.places.barcelona.park-guell",
          "images": [
            {
              "url": "/images/travels/barcelona/park-guell.jpeg",
              "landscape": false
            },
            {
              "url": "/images/travels/barcelona/park-guell-2.jpeg",
              "landscape": false
            }
          ],
          "coordinates": [
            41.4144988,
            2.1505058
          ]
        },
        {
          "name": "Arc de Triomf",
          "description": "travels.places.barcelona.arc-triomf",
          "images": [
            {
              "url": "/images/travels/barcelona/arc-triomf.jpeg",
              "landscape": true
            }
          ],
          "coordinates": [
            41.391037,
            2.1784728
          ]
        },
        {
          "name": "La Sagrada Familia",
          "description": "travels.places.barcelona.sagrada-familia",
          "images": [
            {
              "url": "/images/travels/barcelona/sagrada-familia.jpeg",
              "landscape": true
            }
          ],
          "coordinates": [
            41.4036339,
            2.1721671
          ]
        },
        {
          "name": "Basilica of Santa Maria del Mar",
          "description": "travels.places.barcelona.santa-maria-del-mar",
          "images": [
            {
              "url": "/images/travels/barcelona/santa-maria-del-mar.jpeg",
              "landscape": false
            }
          ],
          "coordinates": [
            41.3838911,
            2.1798824
          ]
        },
        {
          "name": "Catedral de Barcelona",
          "description": "travels.places.barcelona.catedral-barcelona",
          "images": [
            {
              "url": "/images/travels/barcelona/catedral-barcelona.jpeg",
              "landscape": true
            },
            {
              "url": "/images/travels/barcelona/catedral-barcelona-2.jpeg",
              "landscape": false
            },
            {
              "url": "/images/travels/barcelona/catedral-barcelona-3.jpeg",
              "landscape": false
            }
          ],
          "coordinates": [
            41.383966,
            2.1740104
          ]
        },
        {
          "name": "Casa Milà",
          "description": "travels.places.barcelona.casa-mila",
          "images": [
            {
              "url": "/images/travels/barcelona/casa-mila.jpeg",
              "landscape": false
            }
          ],
          "coordinates": [
            41.3952195,
            2.1597137
          ]
        },
        {
          "name": "Casa Batlló",
          "description": "travels.places.barcelona.casa-batllo",
          "images": [
            {
              "url": "/images/travels/barcelona/casa-batllo.jpeg",
              "landscape": false
            }
          ],
          "coordinates": [
            41.3916088,
            2.1625536
          ]
        }
      ]
    }
  ]
}